19:52:12  $GNGGA,195212.00,2150.34560,S,04322.58329,W,1,08,1.24,776.6,M,-6.9,M,,*5C
19:52:13  $GNGGA,195213.00,2150.34564,S,04322.58334,W,1,08,1.24,776.5,M,-6.9,M,,*56
19:52:14  $GNGGA,195214.00,2150.34564,S,04322.58335,W,1,08,1.24,776.5,M,-6.9,M,,*50
19:52:15  $GNGGA,195215.00,2150.34564,S,04322.58336,W,1,08,1.24,776.6,M,-6.9,M,,*51
19:52:16  $GNGGA,195216.00,2150.34558,S,04322.58344,W,1,08,1.24,776.9,M,-6.9,M,,*57
19:52:17  $GNGGA,195217.00,2150.34547,S,04322.58357,W,1,07,1.26,777.5,M,-6.9,M,,*5A
19:52:18  $GNGGA,195218.00,2150.34536,S,04322.58373,W,1,07,1.26,778.1,M,-6.9,M,,*5E
19:52:19  $GNGGA,195219.00,2150.34521,S,04322.58387,W,1,07,1.26,779.0,M,-6.9,M,,*52
19:52:20  $GNGGA,195220.00,2150.34510,S,04322.58396,W,4,08,1.24,779.7,M,-6.9,M,,*50
19:52:21  $GNGGA,195221.00,2150.34494,S,04322.58413,W,4,08,1.24,780.8,M,-6.9,M,,*5F
19:52:22  $GNGGA,195222.00,2150.34488,S,04322.58422,W,4,08,1.24,781.4,M,-6.9,M,,*5E
19:52:23  $GNGGA,195223.00,2150.34478,S,04322.58438,W,4,08,1.24,782.4,M,-6.9,M,,*58
19:52:24  $GNGGA,195224.00,2150.34461,S,04322.58450,W,5,08,1.24,783.6,M,-6.9,M,,*5A
19:52:25  $GNGGA,195225.00,2150.34452,S,04322.58458,W,5,08,1.24,784.5,M,-6.9,M,,*57
19:52:26  $GNGGA,195226.00,2150.34447,S,04322.58466,W,5,08,1.24,785.1,M,-6.9,M,,*58
19:52:27  $GNGGA,195227.00,2150.34443,S,04322.58475,W,5,08,1.24,785.6,M,-6.9,M,,*58
19:52:28  $GNGGA,195228.00,2150.34440,S,04322.58481,W,5,08,1.24,785.9,M,-6.9,M,,*50
19:52:29  $GNGGA,195229.00,2150.34438,S,04322.58492,W,5,08,1.24,786.3,M,-6.9,M,,*55
19:52:30  $GNGGA,195230.00,2150.34433,S,04322.58496,W,5,08,1.26,786.8,M,-6.9,M,,*5B
19:52:31  $GNGGA,195231.00,2150.34427,S,04322.58505,W,5,08,1.26,787.1,M,-6.9,M,,*5C
19:52:32  $GNGGA,195232.00,2150.34423,S,04322.58515,W,5,08,1.26,787.3,M,-6.9,M,,*58
19:52:33  $GNGGA,195233.00,2150.34417,S,04322.58518,W,5,08,1.26,787.5,M,-6.9,M,,*55
19:52:34  $GNGGA,195234.00,2150.34415,S,04322.58524,W,1,08,1.26,787.8,M,-6.9,M,,*52
19:52:35  $GNGGA,195235.00,2150.34411,S,04322.58530,W,5,08,1.26,788.1,M,-6.9,M,,*54
19:52:36  $GNGGA,195236.00,2150.34410,S,04322.58536,W,1,08,1.26,788.3,M,-6.9,M,,*52
19:52:37  $GNGGA,195237.00,2150.34412,S,04322.58546,W,1,08,1.26,788.5,M,-6.9,M,,*50
19:52:38  $GNGGA,195238.00,2150.34411,S,04322.58558,W,1,08,1.26,788.9,M,-6.9,M,,*5F
19:52:39  $GNGGA,195239.00,2150.34411,S,04322.58568,W,5,08,1.26,789.2,M,-6.9,M,,*57
19:52:40  $GNGGA,195240.00,2150.34410,S,04322.58575,W,1,08,1.26,789.5,M,-6.9,M,,*53
19:52:41  $GNGGA,195241.00,2150.34409,S,04322.58586,W,4,08,1.26,789.9,M,-6.9,M,,*5A
19:52:42  $GNGGA,195242.00,2150.34411,S,04322.58596,W,4,08,1.26,790.1,M,-6.9,M,,*51
19:52:43  $GNGGA,195243.00,2150.34413,S,04322.58604,W,4,08,1.26,790.4,M,-6.9,M,,*5F
19:52:44  $GNGGA,195244.00,2150.34414,S,04322.58615,W,4,08,1.26,790.6,M,-6.9,M,,*5D
19:52:45  $GNGGA,195245.00,2150.34414,S,04322.58626,W,4,08,1.26,790.8,M,-6.9,M,,*52
19:52:46  $GNGGA,195246.00,2150.34415,S,04322.58641,W,4,08,1.26,791.2,M,-6.9,M,,*5A
19:52:47  $GNGGA,195247.00,2150.34416,S,04322.58656,W,4,08,1.26,791.4,M,-6.9,M,,*58
19:52:48  $GNGGA,195248.00,2150.34416,S,04322.58671,W,4,08,1.26,791.6,M,-6.9,M,,*50
19:52:49  $GNGGA,195249.00,2150.34417,S,04322.58686,W,4,08,1.26,791.7,M,-6.9,M,,*59
19:52:50  $GNGGA,195250.00,2150.34417,S,04322.58697,W,3,08,1.26,791.7,M,-6.9,M,,*51
19:52:51  $GNGGA,195251.00,2150.34417,S,04322.58701,W,2,08,1.26,791.8,M,-6.9,M,,*51
19:52:52  $GNGGA,195252.00,2150.34418,S,04322.58703,W,4,08,1.26,791.8,M,-6.9,M,,*5F
19:52:53  $GNGGA,195253.00,2150.34420,S,04322.58700,W,4,08,1.26,791.8,M,-6.9,M,,*56
19:52:54  $GNGGA,195254.00,2150.34426,S,04322.58700,W,4,08,1.26,791.7,M,-6.9,M,,*58
19:52:55  $GNGGA,195255.00,2150.34430,S,04322.58703,W,5,08,1.26,791.7,M,-6.9,M,,*5D
19:52:56  $GNGGA,195256.00,2150.34431,S,04322.58705,W,5,08,1.26,791.7,M,-6.9,M,,*59
19:52:57  $GNGGA,195257.00,2150.34432,S,04322.58708,W,5,08,1.26,791.7,M,-6.9,M,,*56
19:52:58  $GNGGA,195258.00,2150.34430,S,04322.58711,W,5,08,1.26,791.7,M,-6.9,M,,*53
19:52:59  $GNGGA,195259.00,2150.34430,S,04322.58711,W,1,08,1.26,791.6,M,-6.9,M,,*53
19:53:00  $GNGGA,195300.00,2150.34432,S,04322.58704,W,1,08,1.24,791.5,M,-6.9,M,,*59
19:53:01  $GNGGA,195301.00,2150.34434,S,04322.58695,W,1,08,1.24,791.3,M,-6.9,M,,*51
19:53:02  $GNGGA,195302.00,2150.34434,S,04322.58692,W,5,08,1.24,791.2,M,-6.9,M,,*54
19:53:03  $GNGGA,195303.00,2150.34435,S,04322.58688,W,5,08,1.24,791.1,M,-6.9,M,,*5C
19:53:04  $GNGGA,195304.00,2150.34438,S,04322.58681,W,5,08,1.24,790.9,M,-6.9,M,,*56
19:53:05  $GNGGA,195305.00,2150.34440,S,04322.58675,W,5,08,1.24,790.7,M,-6.9,M,,*5D
19:53:06  $GNGGA,195306.00,2150.34456,S,04322.58630,W,5,08,1.24,790.7,M,-6.9,M,,*58
19:53:07  $GNGGA,195307.00,2150.34453,S,04322.58630,W,5,09,1.06,790.7,M,-6.9,M,,*5D
19:53:08  $GNGGA,195308.00,2150.34452,S,04322.58625,W,4,09,1.06,790.5,M,-6.9,M,,*55
19:53:09  $GNGGA,195309.00,2150.34450,S,04322.58622,W,4,09,1.06,790.1,M,-6.9,M,,*55
19:53:10  $GNGGA,195310.00,2150.34445,S,04322.58621,W,4,09,1.06,789.8,M,-6.9,M,,*5B
19:53:11  $GNGGA,195311.00,2150.34438,S,04322.58626,W,4,09,1.06,789.6,M,-6.9,M,,*59
19:53:12  $GNGGA,195312.00,2150.34431,S,04322.58631,W,4,09,1.07,789.4,M,-6.9,M,,*56
19:53:13  $GNGGA,195313.00,2150.34427,S,04322.58633,W,1,09,1.07,789.4,M,-6.9,M,,*52
19:53:14  $GNGGA,195314.00,2150.34421,S,04322.58639,W,1,09,1.07,789.5,M,-6.9,M,,*58
19:53:15  $GNGGA,195315.00,2150.34417,S,04322.58640,W,4,09,1.06,789.3,M,-6.9,M,,*55
19:53:16  $GNGGA,195316.00,2150.34416,S,04322.58638,W,4,09,1.06,789.4,M,-6.9,M,,*5F
19:53:17  $GNGGA,195317.00,2150.34413,S,04322.58636,W,4,09,1.06,789.3,M,-6.9,M,,*52
19:53:18  $GNGGA,195318.00,2150.34404,S,04322.58639,W,4,09,1.06,789.3,M,-6.9,M,,*54
19:53:19  $GNGGA,195319.00,2150.34400,S,04322.58629,W,1,09,1.06,789.3,M,-6.9,M,,*50
19:53:20  $GNGGA,195320.00,2150.34400,S,04322.58621,W,1,09,1.06,789.2,M,-6.9,M,,*53
19:53:21  $GNGGA,195321.00,2150.34397,S,04322.58618,W,3,09,1.06,789.3,M,-6.9,M,,*50
19:53:22  $GNGGA,195322.00,2150.34395,S,04322.58615,W,3,09,1.06,789.4,M,-6.9,M,,*5B
19:53:23  $GNGGA,195323.00,2150.34394,S,04322.58612,W,3,09,1.06,789.5,M,-6.9,M,,*5D
19:53:24  $GNGGA,195324.00,2150.34391,S,04322.58609,W,3,09,1.06,789.6,M,-6.9,M,,*56
19:53:25  $GNGGA,195325.00,2150.34390,S,04322.58609,W,2,09,1.06,789.6,M,-6.9,M,,*56
19:53:26  $GNGGA,195326.00,2150.34393,S,04322.58608,W,2,09,1.06,789.7,M,-6.9,M,,*56
19:53:27  $GNGGA,195327.00,2150.34394,S,04322.58611,W,2,09,1.06,789.6,M,-6.9,M,,*59
19:53:28  $GNGGA,195328.00,2150.34398,S,04322.58601,W,2,09,1.06,789.5,M,-6.9,M,,*58
19:53:29  $GNGGA,195329.00,2150.34395,S,04322.58606,W,1,09,1.06,789.4,M,-6.9,M,,*52
19:53:30  $GNGGA,195330.00,2150.34394,S,04322.58609,W,1,09,1.06,789.5,M,-6.9,M,,*55
19:53:31  $GNGGA,195331.00,2150.34392,S,04322.58612,W,1,09,1.06,789.4,M,-6.9,M,,*59
19:53:32  $GNGGA,195332.00,2150.34389,S,04322.58618,W,1,09,1.06,789.4,M,-6.9,M,,*5A
19:53:33  $GNGGA,195333.00,2150.34385,S,04322.58623,W,1,09,1.06,789.3,M,-6.9,M,,*58
19:53:34  $GNGGA,195334.00,2150.34376,S,04322.58644,W,1,09,1.06,789.1,M,-6.9,M,,*50
19:53:35  $GNGGA,195335.00,2150.34374,S,04322.58653,W,1,09,1.06,788.9,M,-6.9,M,,*5C
19:53:36  $GNGGA,195336.00,2150.34368,S,04322.58665,W,1,09,1.24,788.7,M,-6.9,M,,*59
19:53:37  $GNGGA,195337.00,2150.34365,S,04322.58673,W,1,09,1.24,788.5,M,-6.9,M,,*50
19:53:38  $GNGGA,195338.00,2150.34365,S,04322.58677,W,1,09,1.09,788.3,M,-6.9,M,,*52
19:53:39  $GNGGA,195339.00,2150.34363,S,04322.58677,W,1,10,1.04,788.1,M,-6.9,M,,*52
19:53:40  $GNGGA,195340.00,2150.34358,S,04322.58686,W,1,10,1.01,788.0,M,-6.9,M,,*5E
19:53:41  $GNGGA,195341.00,2150.34356,S,04322.58692,W,1,10,1.01,788.1,M,-6.9,M,,*55
19:53:42  $GNGGA,195342.00,2150.34358,S,04322.58692,W,1,10,1.01,788.0,M,-6.9,M,,*59
19:53:43  $GNGGA,195343.00,2150.34351,S,04322.58699,W,1,09,1.04,787.9,M,-6.9,M,,*51
19:53:44  $GNGGA,195344.00,2150.34340,S,04322.58710,W,1,10,1.01,788.0,M,-6.9,M,,*5D
19:53:45  $GNGGA,195345.00,2150.34336,S,04322.58712,W,1,10,1.01,788.0,M,-6.9,M,,*5F
19:53:46  $GNGGA,195346.00,2150.34337,S,04322.58707,W,4,10,1.01,788.1,M,-6.9,M,,*58
19:53:47  $GNGGA,195347.00,2150.34338,S,04322.58704,W,4,10,1.01,788.0,M,-6.9,M,,*54
19:53:48  $GNGGA,195348.00,2150.34342,S,04322.58697,W,4,10,1.01,788.1,M,-6.9,M,,*5C
19:53:49  $GNGGA,195349.00,2150.34351,S,04322.58685,W,4,10,1.01,788.1,M,-6.9,M,,*5C
19:53:50  $GNGGA,195350.00,2150.34356,S,04322.58672,W,4,10,1.01,788.2,M,-6.9,M,,*58
19:53:51  $GNGGA,195351.00,2150.34361,S,04322.58657,W,4,10,1.01,788.3,M,-6.9,M,,*5B
19:53:52  $GNGGA,195352.00,2150.34359,S,04322.58653,W,4,10,1.01,788.3,M,-6.9,M,,*57
19:53:53  $GNGGA,195353.00,2150.34363,S,04322.58640,W,4,10,1.01,788.3,M,-6.9,M,,*5D
19:53:54  $GNGGA,195354.00,2150.34366,S,04322.58628,W,4,10,1.01,788.4,M,-6.9,M,,*56
19:53:55  $GNGGA,195355.00,2150.34371,S,04322.58618,W,4,10,1.01,788.6,M,-6.9,M,,*50
19:53:56  $GNGGA,195356.00,2150.34371,S,04322.58621,W,4,10,1.16,788.7,M,-6.9,M,,*5E
19:53:57  $GNGGA,195357.00,2150.34372,S,04322.58626,W,3,10,1.16,788.9,M,-6.9,M,,*55
19:53:58  $GNGGA,195358.00,2150.34366,S,04322.58634,W,3,10,1.16,789.1,M,-6.9,M,,*55
19:53:59  $GNGGA,195359.00,2150.34362,S,04322.58641,W,3,10,1.01,789.3,M,-6.9,M,,*56
19:54:00  $GNGGA,195400.00,2150.34364,S,04322.58635,W,2,10,1.01,789.4,M,-6.9,M,,*5F
19:54:01  $GNGGA,195401.00,2150.34366,S,04322.58625,W,1,10,1.01,789.4,M,-6.9,M,,*5D
19:54:02  $GNGGA,195402.00,2150.34366,S,04322.58622,W,1,10,1.01,789.4,M,-6.9,M,,*59
19:54:03  $GNGGA,195403.00,2150.34370,S,04322.58616,W,1,10,1.04,789.4,M,-6.9,M,,*5D
19:54:04  $GNGGA,195404.00,2150.34373,S,04322.58613,W,1,10,1.04,789.5,M,-6.9,M,,*5D
19:54:05  $GNGGA,195405.00,2150.34380,S,04322.58604,W,1,10,1.04,789.5,M,-6.9,M,,*56
19:54:06  $GNGGA,195406.00,2150.34387,S,04322.58596,W,1,10,1.04,789.4,M,-6.9,M,,*5B
19:54:07  $GNGGA,195407.00,2150.34396,S,04322.58588,W,1,10,1.04,789.5,M,-6.9,M,,*54
19:54:08  $GNGGA,195408.00,2150.34407,S,04322.58576,W,1,10,1.04,789.4,M,-6.9,M,,*54
19:54:09  $GNGGA,195409.00,2150.34417,S,04322.58570,W,1,10,1.04,789.4,M,-6.9,M,,*52
19:54:10  $GNGGA,195410.00,2150.34420,S,04322.58563,W,1,10,1.01,789.2,M,-6.9,M,,*5F
19:54:11  $GNGGA,195411.00,2150.34428,S,04322.58556,W,1,10,1.01,789.2,M,-6.9,M,,*50
19:54:12  $GNGGA,195412.00,2150.34432,S,04322.58553,W,1,10,1.01,789.1,M,-6.9,M,,*5E
19:54:13  $GNGGA,195413.00,2150.34432,S,04322.58555,W,1,10,1.01,789.1,M,-6.9,M,,*59
19:54:14  $GNGGA,195414.00,2150.34430,S,04322.58561,W,1,10,1.01,789.0,M,-6.9,M,,*5A
19:54:15  $GNGGA,195415.00,2150.34434,S,04322.58566,W,1,10,1.01,789.0,M,-6.9,M,,*58
19:54:16  $GNGGA,195416.00,2150.34432,S,04322.58577,W,1,10,1.01,789.0,M,-6.9,M,,*5D